%time,field.header.seq,field.header.stamp,field.header.frame_id,field.name0,field.name1,field.name2,field.name3,field.name4,field.name5,field.name6,field.position0,field.position1,field.position2,field.position3,field.position4,field.position5,field.position6,field.velocity0,field.velocity1,field.velocity2,field.velocity3,field.velocity4,field.velocity5,field.velocity6,field.effort0,field.effort1,field.effort2,field.effort3,field.effort4,field.effort5,field.effort6
66894000000,1928,66894000000,,panda_joint1,panda_joint2,panda_joint3,panda_joint4,panda_joint5,panda_joint6,panda_joint7,1.035356712372046,-0.49760120917606265,-1.082542494010509,-2.656839220756442,2.5331891102233737,0.8313664458165162,0.33972690291005136,0.0013451271504685352,0.0043125533484453795,-0.001499587571178845,0.0026578493702783075,0.002144740604419809,-0.0012312267601232091,-0.0005924221133318268,-0.0031836072598013226,1.9285653471443083,-9.452462692366312,-17.675588098063077,0.5323049555520437,2.2782976462439635,0.013633442176904442
66928000000,1929,66928000000,,panda_joint1,panda_joint2,panda_joint3,panda_joint4,panda_joint5,panda_joint6,panda_joint7,1.0353572926294952,-0.4976013307627918,-1.082542756351275,-2.6568395102073064,2.5331899551255823,0.8313667517821255,0.33972678575245663,0.0009416947665164993,0.004933889678751523,-0.0012086418518375839,0.002654629638334885,0.002050146450991274,-0.0013376951501562434,-0.0006817844312020241,-0.007674170901078604,1.950742595352138,-9.441129141500092,-17.67592177486408,0.5339972489226767,2.2763239172062812,0.012906546782970964
66962000000,1930,66962000000,,panda_joint1,panda_joint2,panda_joint3,panda_joint4,panda_joint5,panda_joint6,panda_joint7,1.0353576970399807,-0.4976031871162929,-1.0825437989215514,-2.6568396938524685,2.533189693270513,0.8313674221445915,0.3397269909004539,0.0011463499226092302,0.004727684637368415,-0.0012442335312354926,0.0025441626814776755,0.002506404008261756,-0.0015192226361214797,-0.0004643758793448354,0.013620717288524101,1.9314014443536947,-9.482890328230724,-17.666432046015505,0.5298750505455284,2.2749653749435246,0.01331760810965496
66996000000,1931,66996000000,,panda_joint1,panda_joint2,panda_joint3,panda_joint4,panda_joint5,panda_joint6,panda_joint7,1.0353603376951321,-0.49759807044726756,-1.0825433683815273,-2.6568376444873945,2.5331910176576784,0.8313685630991845,0.3397268074171116,0.0015582843134640451,0.004582379670226499,-0.002788499918430456,0.0045135688380631145,0.0008446278544624623,-0.00166319762193792,-0.002312640912873341,-0.059116937822303726,1.9169578306971526,-9.205266806003488,-17.715073142365235,0.5806755766601392,2.268446009356588,0.005714232869357481
67030000000,1932,67030000000,,panda_joint1,panda_joint2,panda_joint3,panda_joint4,panda_joint5,panda_joint6,panda_joint7,1.0353689644391295,-0.4975972445356538,-1.0825616455201894,-2.656834523658154,2.533179358817197,0.8313687140826609,0.3397252277069276,0.01594816756906187,-0.0012608838539303546,-0.029485186146587204,-0.0044082823421422316,-0.009154913473897316,0.0037591212428999643,0.0008064213769249734,-0.10474287480958845,2.1370025077989636,-9.692048007521308,-17.08059825686407,0.4171421899180063,2.2708067612612313,-0.01661982675629812
67064000000,1933,67064000000,,panda_joint1,panda_joint2,panda_joint3,panda_joint4,panda_joint5,panda_joint6,panda_joint7,1.0352957942438996,-0.49771874989709275,-1.0823882269462803,-2.656879410271584,2.533505735644507,0.8316721619573366,0.3395706285038873,-0.006192157177202054,-0.02402482610391765,0.012613044614748372,-0.010269720007253718,0.03967439731533322,0.054415413663117154,-0.024720754322643642,-0.029834561109216763,2.8017035084245956,-10.053738171982923,-17.277732877254266,0.4893366888779784,2.2179062834180736,0.00900380655162979
67098000000,1934,67098000000,,panda_joint1,panda_joint2,panda_joint3,panda_joint4,panda_joint5,panda_joint6,panda_joint7,1.035225683123235,-0.4985961111943542,-1.0817915756731011,-2.657257533111821,2.5343323591894507,0.8327768351676808,0.33911557144879456,-0.0028425330095904556,-0.008661547313561488,0.007287312689738086,0.0004867412491972164,-0.008648958795442039,-0.0021540134724932526,0.003460271716250001,0.1055904521976763,1.8064027297943215,-9.53805476098185,-18.01983918066937,0.4864524176156877,2.181565412639874,0.027220421935694482
67133000000,1935,67133000000,,panda_joint1,panda_joint2,panda_joint3,panda_joint4,panda_joint5,panda_joint6,panda_joint7,1.0342306274023905,-0.49974106529279005,-1.0801703035382548,-2.6570926484179678,2.534518453725946,0.8356562659619886,0.3389363617964145,-0.04591741060402082,-0.054232416220081646,0.07967946346957397,0.017646542927582387,0.011593576233656828,0.13986302628371589,-0.008905351383553915,0.13503924356583918,3.245112552928313,-10.037964568120575,-18.93799983709811,0.5845923176842249,2.4296151811884243,0.01116800043291099
67168000000,1936,67167000000,,panda_joint1,panda_joint2,panda_joint3,panda_joint4,panda_joint5,panda_joint6,panda_joint7,1.0322431934562406,-0.5028235688469511,-1.0763385401317365,-2.655838582139989,2.5350528190891097,0.8422424120305356,0.3386913323492644,-0.0687209708097058,-0.12550944172193534,0.13453677333043101,0.05943498885875413,0.015711230520702522,0.24646374497883233,-0.006769972859199717,0.2610195590209664,3.579180400882977,-10.50203915076926,-19.627821403866072,0.5101733874929401,2.496391924392836,-0.007757008522733395
67201000000,1937,67201000000,,panda_joint1,panda_joint2,panda_joint3,panda_joint4,panda_joint5,panda_joint6,panda_joint7,1.0299466187862087,-0.5078053923092565,-1.0706909893580532,-2.6524801955209494,2.5362999790030436,0.8518367699868357,0.3387194321931668,-0.06101571068559294,-0.15381017429135754,0.17255579491324613,0.1524609731996726,0.03688947519339705,0.27741901231654353,0.0037135289871123647,0.12653522676416837,2.586967714562562,-9.483766992876822,-19.66919399009989,0.5470541838737728,2.501243589773873,0.006422316685769178
67235000000,1938,67234000000,,panda_joint1,panda_joint2,panda_joint3,panda_joint4,panda_joint5,panda_joint6,panda_joint7,1.0286037942624837,-0.5127520758308712,-1.0657171238300887,-2.6474412703809715,2.5377000433905508,0.8594241753843619,0.33906647289881686,-0.03629178419387486,-0.13347674901388132,0.13039259997897037,0.15907320504577538,0.03629985572897858,0.1800316008699457,0.012523693157349684,0.6292956361680456,1.2040682659810358,-9.89170961366748,-17.492741304254764,0.38915625953724087,2.2889167235199843,0.0063399549704519
67270000000,1939,67269000000,,panda_joint1,panda_joint2,panda_joint3,panda_joint4,panda_joint5,panda_joint6,panda_joint7,1.0279693180978526,-0.5163138986919176,-1.0624871629852501,-2.64247656598916,2.5387775954274723,0.8632669668226933,0.3394114412222651,-0.011155801019825962,-0.06360410830095523,0.05286842379657705,0.11411711945278703,0.017874165233743827,0.03408273734776551,0.007328790872212165,-0.01230235964218018,0.31167481667969676,-8.837785872800815,-15.558191505676163,0.45273822668981967,1.888699653858891,0.015166283181554175
67303000000,1940,67303000000,,panda_joint1,panda_joint2,panda_joint3,panda_joint4,panda_joint5,panda_joint6,panda_joint7,1.027357008290938,-0.5183034753583051,-1.0606494408703337,-2.6393721793481495,2.5400216005713148,0.8667702907270378,0.3398544730231974,-0.020232039655269454,-0.051269670782845916,0.059382250004829384,0.08682341503503092,0.05790934241124751,0.1720786421626583,0.017452590847734588,-0.3804503452441889,1.720663967881967,-10.288300338827298,-18.1628469197923,0.5776025491804987,2.1037017584066406,0.02191352354820259
67338000000,1941,67337000000,,panda_joint1,panda_joint2,panda_joint3,panda_joint4,panda_joint5,panda_joint6,panda_joint7,1.0270602808766887,-0.519830521684927,-1.0589343203011365,-2.6365213929528606,2.541419234952908,0.8710964742132132,0.34022900379943977,0.0014656295843276882,-0.023388514297251826,0.02296040345110388,0.06529849042270977,0.011304849639788827,0.016399472731850023,0.00255172280469991,-0.20978777611751667,0.6440845555598738,-9.280054779982043,-16.041169706321433,0.5655928500090657,2.144002606455888,0.006244647163663526
67371000000,1942,67371000000,,panda_joint1,panda_joint2,panda_joint3,panda_joint4,panda_joint5,panda_joint6,panda_joint7,1.0269440879350702,-0.5208173203180309,-1.057647405665092,-2.6344718483189116,2.542769522519885,0.8750456920719909,0.3408289124240893,-0.0004345240963080431,-0.04165760075549838,0.04750021729290368,0.07799157408165554,0.057686955775868624,0.20071172252944353,0.024854533421490937,-0.39317662713769136,2.3282902826198626,-11.05251261206624,-19.473360458546207,0.5378665786863754,2.3011434574171035,-0.0009091973178091833
67406000000,1943,67405000000,,panda_joint1,panda_joint2,panda_joint3,panda_joint4,panda_joint5,panda_joint6,panda_joint7,1.027379527954321,-0.5221359846012259,-1.055519707116849,-2.630681130225226,2.5450316985741956,0.8816632591255873,0.34171832285926396,0.019638134353268923,-0.036312411933858306,0.04767311076071024,0.1170121425164542,0.037270989189582125,0.12557912290300657,0.01719918008954944,0.021716257243364654,1.858537854937335,-10.140614819145505,-17.621408895976963,0.5621155994838282,2.4197901603914547,-0.008972712419429001
67439000000,1944,67439000000,,panda_joint1,panda_joint2,panda_joint3,panda_joint4,panda_joint5,panda_joint6,panda_joint7,1.027948402523223,-0.5230603961935643,-1.0539136841567052,-2.627289570174945,2.546212464538119,0.8846711162569347,0.3423346369415414,0.018329888769270372,-0.026917966808623597,0.05560663102734251,0.09663217939391615,0.05267639304121425,0.11382943362677675,0.026923034530640814,-0.13569037523429203,1.5155273682321795,-10.343535392531466,-18.284361157050135,0.3779112206429469,2.281150663339027,-0.006173121541108887
67477000000,1945,67473000000,,panda_joint1,panda_joint2,panda_joint3,panda_joint4,panda_joint5,panda_joint6,panda_joint7,1.0284048063580915,-0.5236458158244854,-1.0528961318916217,-2.6249389211895595,2.5469188636678464,0.8862819326243052,0.3427271555735283,0.009349859293574084,-0.018103280045616774,0.03690182708011014,0.05455337908528897,0.04441161094766728,0.09103405261064342,0.029875134125888714,-0.22352966245662662,1.6950267616414698,-10.712852496615739,-18.982460547565143,0.2614383953799999,1.9508995837209326,-0.0005946464242884672
67508000000,1946,67508000000,,panda_joint1,panda_joint2,panda_joint3,panda_joint4,panda_joint5,panda_joint6,panda_joint7,1.029072672947124,-0.5241978156099201,-1.0519632288145555,-2.6223823309503365,2.5487155013064395,0.8904977780590997,0.3436481753235814,0.035586728639185716,-0.013026481892008756,0.030547886116295428,0.08893057814145525,0.08174010176361876,0.16465969320205065,0.03442651574722304,0.029793020191208948,2.0640507907648917,-11.072183362865593,-19.195216718468355,0.4827331394042453,2.518833945796985,0.002724278862034792
67542000000,1947,67542000000,,panda_joint1,panda_joint2,panda_joint3,panda_joint4,panda_joint5,panda_joint6,panda_joint7,1.029895555811036,-0.5245011776311239,-1.0510196155971219,-2.6190681856783433,2.550200453046637,0.8936149142456031,0.34425598912468836,0.01131338938513507,-0.009675815035747916,0.013115311381954051,0.06617479606504181,0.0014979352652666113,0.016039255109658958,0.00229729747998977,0.3345435406610563,1.933544706889202,-9.861485895855,-16.45410847345305,0.5324739537289135,2.2167700133074764,-0.010502909199382654
67576000000,1948,67576000000,,panda_joint1,panda_joint2,panda_joint3,panda_joint4,panda_joint5,panda_joint6,panda_joint7,1.0305234680475044,-0.5248517704989402,-1.050376732872663,-2.6167231330842142,2.5514677060043898,0.8961249277263912,0.3450526027719274,0.02880077266842755,-0.01551783685008212,0.011890404615697469,0.08802948257446463,0.05270988865328999,0.12458467688829158,0.025215104298668394,-0.04558226242598245,1.8919677974783917,-10.522034041629505,-18.84535926117648,0.56307306867208,2.4289574630790662,-0.002177447408976186
67610000000,1949,67610000000,,panda_joint1,panda_joint2,panda_joint3,panda_joint4,panda_joint5,panda_joint6,panda_joint7,1.0312138343761301,-0.5249540997208397,-1.0498073852655772,-2.6141586584126104,2.552476793796462,0.8978841766999315,0.34546743367777477,0.008242706879317203,-0.0002447063128499106,0.028823360250968363,0.036337155142524204,0.02266030684598709,0.00767408593999442,0.012831087405014577,0.01777956444966885,1.5964138556578304,-10.25875787165292,-17.459563011803468,0.35447927711838245,2.1096968231638016,-0.012828423750524823
67644000000,1950,67644000000,,panda_joint1,panda_joint2,panda_joint3,panda_joint4,panda_joint5,panda_joint6,panda_joint7,1.031961331476884,-0.5251347311588619,-1.0494573875236934,-2.611995169603925,2.5539146294755355,0.9005922081316546,0.3463110553919897,0.02702282719754828,0.0016773293529306669,0.021197964674098877,0.08042228285316641,0.04617512406877291,0.06812150833184225,0.016897614529886387,0.1638545000053541,1.6711472404749679,-10.568302956227594,-17.864543541203858,0.5118483242472628,2.488715099418965,-0.023249750463174353
67681000000,1951,67678000000,,panda_joint1,panda_joint2,panda_joint3,panda_joint4,panda_joint5,panda_joint6,panda_joint7,1.0324873643602208,-0.5250890162634514,-1.0492021652762107,-2.6102053550383344,2.554606199311639,0.9016795091094592,0.3467125182713042,0.023955601012998973,-0.0035884338893330567,-0.007594291410056513,0.05870749496080314,0.03555690654935905,0.08226561415641707,0.03317120341980154,-0.4806644641561003,1.734499328838448,-10.737582451542087,-19.733488557138504,0.31817292471649794,2.047113918322176,0.005475169677362523
67712000000,1952,67712000000,,panda_joint1,panda_joint2,panda_joint3,panda_joint4,panda_joint5,panda_joint6,panda_joint7,1.0334786300706353,-0.5249972714333868,-1.0489693255602965,-2.6076589402340344,2.556129574889047,0.9042752284820255,0.3474642211810064,0.019690155056471065,0.011859396522737108,0.0048981587677695455,0.06368072726598861,0.018798998004360315,0.01986903472464813,0.007669923384956499,0.2152454697227157,1.9919494077441424,-9.926144581346948,-17.273901170878673,0.6080440498842076,2.2671152026223376,0.006298102410806212
67746000000,1953,67746000000,,panda_joint1,panda_joint2,panda_joint3,panda_joint4,panda_joint5,panda_joint6,panda_joint7,1.0344930567421784,-0.5248743947464556,-1.0487948292369698,-2.6051517149481027,2.5576239497248388,0.9067324307413909,0.3483976948835581,0.03663771402671404,0.0020720043741810435,-0.0008083502421488524,0.09156250708418748,0.04388682588656616,0.08446073530593423,0.01923142495953364,0.1569456494173157,1.9760079597760425,-10.53926936265818,-18.1556360785734,0.6326270690965107,2.4990902892585574,-0.004899473562482392
67780000000,1954,67780000000,,panda_joint1,panda_joint2,panda_joint3,panda_joint4,panda_joint5,panda_joint6,panda_joint7,1.0355195400240085,-0.524613388670419,-1.0486203449211668,-2.6025346704577856,2.5588605493143213,0.9085036142508383,0.34912825049579777,0.04651850979066105,0.01043975966648078,0.0038860438673033112,0.07737437992751714,0.0682031036775107,0.09270594254794556,0.03846572905945968,-0.10306649872870705,1.8584262457016327,-11.018284819368192,-19.072259336071532,0.4051822232319702,2.333736869134376,0.002415324968914956
67814000000,1955,67814000000,,panda_joint1,panda_joint2,panda_joint3,panda_joint4,panda_joint5,panda_joint6,panda_joint7,1.0366115191325598,-0.524293620970484,-1.0484412660766944,-2.5996970522084224,2.5601487788555684,0.9103130004525672,0.3497813198288062,0.019466448152583696,0.0025373901419406654,-0.0036721438417046132,0.054008783122412,0.010144676722587925,0.022632729104560934,0.01326117476296279,0.07265643928141965,2.050052510780613,-10.307612468179114,-17.724956609373702,0.4711684055320907,2.140244353083092,-0.007186575473192517
67850000000,1956,67850000000,,panda_joint1,panda_joint2,panda_joint3,panda_joint4,panda_joint5,panda_joint6,panda_joint7,1.0382319969050435,-0.5239341295213729,-1.0486290959988258,-2.596576863242422,2.5621935963847893,0.91322058209433,0.35119081688161646,0.07128397126605779,0.01694994746952204,-0.025552798991440175,0.12530018516884006,0.07961677034281313,0.11961849299663835,0.05375118244993638,-0.31110369405708793,1.5518100498439706,-10.917839543042493,-20.04371365486792,0.4505582270287469,2.2974519764468146,0.0039971862476123115
67884000000,1957,67884000000,,panda_joint1,panda_joint2,panda_joint3,panda_joint4,panda_joint5,panda_joint6,panda_joint7,1.0414994762494167,-0.5226114098767018,-1.0494790611653295,-2.590462323905406,2.5660384523159685,0.9180954077664083,0.35357491962171306,0.11655536048318646,0.049615711951589855,-0.03890987353666916,0.22251320258033103,0.1263440469119425,0.16376812193960621,0.08064861739887612,-0.3536545953083168,1.7033042875159514,-11.218526002292641,-20.18190923739706,0.49739707386978593,2.3366376697007176,0.004310080981076676
67918000000,1958,67918000000,,panda_joint1,panda_joint2,panda_joint3,panda_joint4,panda_joint5,panda_joint6,panda_joint7,1.0453117610994713,-0.5204524715386833,-1.0503247328576686,-2.5825525608978106,2.5700047493530462,0.9221811393599504,0.35588338382594475,0.09496265627961749,0.06184892120179314,-0.0034530760842322455,0.21418645237665182,0.09932568519929674,0.08120506354147006,0.05689318033379293,0.12077362792621352,2.0158565988361845,-10.68710081262919,-17.40186811194459,0.526958976628681,2.3320504427756896,-0.016879272195127058
67952000000,1959,67952000000,,panda_joint1,panda_joint2,panda_joint3,panda_joint4,panda_joint5,panda_joint6,panda_joint7,1.0476758450162285,-0.518938423928053,-1.050443212730971,-2.57704603940513,2.572045539545501,0.9238288716838774,0.3571357753038322,0.05689096805713948,0.023068327939846256,-0.01376011015676245,0.1091944469809773,0.03538662584971845,0.0339629197175932,0.03598125246082693,0.047068755982885985,1.955531729275017,-10.021204917782619,-17.447048657624958,0.43181466502113897,2.084072975729583,-0.002799427597456615
67986000000,1960,67986000000,,panda_joint1,panda_joint2,panda_joint3,panda_joint4,panda_joint5,panda_joint6,panda_joint7,1.050557657351174,-0.5177273118764898,-1.0514321439830958,-2.5726904129144668,2.5745918224064344,0.9260052007314021,0.3591344417796396,0.1135236038426375,0.05019123856987246,-0.06329748719463982,0.1543639431486431,0.09586806754164909,0.08761702254005119,0.07380044894038319,-0.26253588954131873,1.0619947652706543,-10.535913906909373,-19.603764801176958,0.3993105134166208,2.1755258990582615,0.006477812458028063
68024000000,1961,68023000000,,panda_joint1,panda_joint2,panda_joint3,panda_joint4,panda_joint5,panda_joint6,panda_joint7,1.0548088582688226,-0.5149247893493758,-1.0535373377467643,-2.5660954901263677,2.5785564298138723,0.9290883710932141,0.3616749576555529,0.09428661151718938,0.08198613681421414,-0.04933000532134964,0.16769600538427026,0.08583485726844126,0.063285352389166,0.05170205153137618,0.45477400340038343,2.2450623187601306,-10.766714469406528,-17.572378116875115,0.6024055357610063,2.3414274779653796,0.004400990038391989
68057000000,1962,68057000000,,panda_joint1,panda_joint2,panda_joint3,panda_joint4,panda_joint5,panda_joint6,panda_joint7,1.057362196242785,-0.5128049657536442,-1.0546310730654476,-2.561782556989095,2.5807433317020507,0.9305441072385641,0.3631532117641987,0.08958081654998241,0.05976910458503805,-0.046335058384288655,0.12241197431745154,0.07533816744328034,0.04717251506649208,0.05989692780923304,-0.35875977551331756,1.4547176288241521,-9.877708063656641,-19.186900251130847,0.4523303910601632,2.1652109417827052,0.01443481602980023
68091000000,1963,68091000000,,panda_joint1,panda_joint2,panda_joint3,panda_joint4,panda_joint5,panda_joint6,panda_joint7,1.0615451910062967,-0.5102767026449211,-1.057102263380406,-2.5564895774338536,2.5842379750448075,0.9327155433401328,0.3658201364857723,0.16778669354336262,0.1009765574655039,-0.11323346659580572,0.19021336154764396,0.12970760878835788,0.0815786057950959,0.09741418640015537,-0.4451287678603946,1.2848843795602238,-10.855300527458475,-19.60004231334787,0.3445295305000117,2.220729448500584,-0.013153979202645943
68126000000,1964,68125000000,,panda_joint1,panda_joint2,panda_joint3,panda_joint4,panda_joint5,panda_joint6,panda_joint7,1.0675846537148432,-0.5059597274697705,-1.0610834690680289,-2.5485030937736592,2.5893294451754905,0.9352525374652538,0.369483414276754,0.20094832655119674,0.14810799165534977,-0.1434685859877286,0.2664381810868494,0.1593358433885748,0.07299073987028791,0.1171444636634575,-0.38934449628622253,1.226964095905619,-10.915806927682969,-19.555401200748925,0.5038199255526855,2.263397047719348,0.0006658447122807818
68160000000,1965,68160000000,,panda_joint1,panda_joint2,panda_joint3,panda_joint4,panda_joint5,panda_joint6,panda_joint7,1.074131003925995,-0.5003770203546836,-1.0653525495615295,-2.539201331735854,2.594680355122698,0.9372753525107127,0.3730959657398545,0.15730754101379013,0.15016770674769833,-0.10439549867016384,0.24420200999574251,0.11669301470656197,0.036059086013777955,0.08171634045948638,0.02943235895828645,2.4667228068603606,-10.007663139834579,-17.75751053661529,0.7877962924749208,2.3226342640310156,0.010268579552092491
68193000000,1966,68193000000,,panda_joint1,panda_joint2,panda_joint3,panda_joint4,panda_joint5,panda_joint6,panda_joint7,1.0783694090202411,-0.4963366494849515,-1.0677831902403554,-2.5330465876592445,2.5978207071627004,0.9381689855503383,0.3752367866882622,0.08750573035192166,0.08553789688125545,-0.04893983269380533,0.1272043506321866,0.05163137772797493,0.015259909454875284,0.03606785174065017,0.622537783883996,3.2975383303214567,-10.320667582940388,-16.630061301673376,0.6905176409836613,2.3210329521276942,-0.00928747983708737
68227000000,1967,68227000000,,panda_joint1,panda_joint2,panda_joint3,panda_joint4,panda_joint5,panda_joint6,panda_joint7,1.0821300512703242,-0.4936731392832119,-1.0700060112211744,-2.529119251206245,2.600194076083799,0.9385691955320716,0.377401638206587,0.15227521363592791,0.09116061712261542,-0.11922018701225251,0.14523121671496625,0.08916558404199053,0.018956152187323008,0.08398001824110748,0.026911647640077637,1.066197878994192,-10.048886884252328,-19.489607366324677,0.36089951130817716,2.173009200800426,0.01067780734398034
68261000000,1968,68261000000,,panda_joint1,panda_joint2,panda_joint3,panda_joint4,panda_joint5,panda_joint6,panda_joint7,1.088027013263086,-0.48954842791608044,-1.0745158544576245,-2.5232954717836424,2.6044335986047784,0.9391555010961934,0.38084610854063694,0.2009235028910119,0.15320506808226378,-0.17462779970778156,0.21261724162480705,0.13791793006746825,0.014471261472197149,0.11237867534518624,-0.23502748610961785,0.9199369850493639,-10.468903131534093,-19.618321894065534,0.406615485092438,2.2335358359460535,0.0012375002472609356
68296000000,1969,68295000000,,panda_joint1,panda_joint2,panda_joint3,panda_joint4,panda_joint5,panda_joint6,panda_joint7,1.0956392140496858,-0.48331554606678395,-1.0808543369918358,-2.515183327142826,2.610146253458325,0.9395649859516517,0.3852290032731762,0.2478060698909682,0.21162808161501626,-0.2142774887681813,0.2690144862468495,0.18324859752691514,0.009119744635827595,0.14172703796484495,-0.42334433483182393,0.9622222697126189,-10.296045998490332,-19.61608823278351,0.5081416302223366,2.214658348046137,0.005868621392022418
68329000000,1970,68329000000,,panda_joint1,panda_joint2,panda_joint3,panda_joint4,panda_joint5,panda_joint6,panda_joint7,1.1047682576029727,-0.4754422146198021,-1.0886613633788933,-2.5055139539000377,2.6168413335548575,0.939402478878284,0.3903643771742944,0.28621687110333666,0.2510684600269728,-0.23528226420027248,0.2974671289001893,0.21564378166519904,-0.01572209783408269,0.1648377482032096,-0.4709876460755491,0.9154702299936479,-10.839709169205447,-19.227822632295226,0.40882400924702966,2.224157708272095,-0.016630603686798605
68365000000,1971,68365000000,,panda_joint1,panda_joint2,panda_joint3,panda_joint4,panda_joint5,panda_joint6,panda_joint7,1.1159631227488305,-0.4657023670608442,-1.098389915221004,-2.4944122302579883,2.624730032312957,0.9383947968416813,0.39654768298891163,0.33039718278975405,0.2886044208499708,-0.27897058759353005,0.31587556138601497,0.2375164886443038,-0.042105845040983754,0.18589821937065237,-0.494322654664424,0.883533153605184,-10.620760765917694,-18.991650009570243,0.42561376830039516,2.190184782122056,-0.012570283911112166
68400000000,1972,68399000000,,panda_joint1,panda_joint2,panda_joint3,panda_joint4,panda_joint5,panda_joint6,panda_joint7,1.1277549198029924,-0.45537427636234096,-1.1088526624666422,-2.4836531286774255,2.6327821985241293,0.9366358771299783,0.4029327969338743,0.362269007283386,0.3206180375559406,-0.32754195551018245,0.31679635852836435,0.24216191499190615,-0.06341027786345425,0.19275191408538894,-0.4113245593773651,1.226231538120321,-9.82095879416272,-18.642861336770267,0.5993750865987858,2.189706727883688,0.01602972528903446
68433000000,1973,68433000000,,panda_joint1,panda_joint2,panda_joint3,panda_joint4,panda_joint5,panda_joint6,panda_joint7,1.1403572126528072,-0.44431726852633346,-1.1202784038268891,-2.473205781796496,2.6411710082659248,0.9341533756535032,0.40967816098748777,0.37893781173071445,0.33362307049722306,-0.33676720506039676,0.300607083586377,0.2575287332474011,-0.085959708673431,0.2069045953591578,-0.291884254074561,1.1929931728761103,-10.229763512528557,-18.766381613857835,0.417867046059608,2.200410308650187,-0.016882670195952205
68468000000,1974,68467000000,,panda_joint1,panda_joint2,panda_joint3,panda_joint4,panda_joint5,panda_joint6,panda_joint7,1.1537353982727616,-0.43268051236461424,-1.1327051297373192,-2.463178954012169,2.649911789135958,0.9309553703151199,0.4167805806088758,0.4000703315410375,0.3495216950668113,-0.3835109509415587,0.29634549949418915,0.2504616567648823,-0.10898822215044374,0.20852142167525084,-0.23954326436674467,1.4485321560272992,-9.15652541885785,-18.990190415426056,0.642391287633509,2.1993822209445835,0.016771570229898735
68501000000,1975,68501000000,,panda_joint1,panda_joint2,panda_joint3,panda_joint4,panda_joint5,panda_joint6,panda_joint7,1.1679024318652615,-0.4205058953564933,-1.1462151544373498,-2.453534209852271,2.6590902178115527,0.9270695029732359,0.4242666788962044,0.4238619295129586,0.36519401460301626,-0.3980906433461804,0.2779040338486342,0.28232547567163313,-0.1277170321803181,0.22679062798803198,-0.11176565546926963,1.238609635040031,-9.79952187628834,-18.909538103968995,0.4141924469124899,2.245498643448056,-0.02294771913231575
68539000000,1976,68536000000,,panda_joint1,panda_joint2,panda_joint3,panda_joint4,panda_joint5,panda_joint6,panda_joint7,1.183318531055396,-0.40743089944178834,-1.161305041257954,-2.443964080064447,2.669037055692531,0.9223432567612626,0.43237429504410585,0.45054372474989196,0.38102967816529815,-0.43487217502703734,0.2681995182385259,0.29912617692823223,-0.14946995708512967,0.24004314848700847,-0.08902249910463599,1.133060797141432,-9.58151115554684,-18.997541519841505,0.4064257209086786,2.2844774667188084,-0.018462980925502474
68569000000,1977,68569000000,,panda_joint1,panda_joint2,panda_joint3,panda_joint4,panda_joint5,panda_joint6,panda_joint7,1.198771096972175,-0.3945648398969315,-1.1767802880174365,-2.435210728068853,2.6790019615101563,0.9171733051617839,0.44046917601892943,0.47671575089565654,0.4002247779999306,-0.4645751455590443,0.2537397940946986,0.3261596228425012,-0.16460285097902352,0.2547752454706985,-0.078405697594658,1.106620870967126,-9.482401323089842,-19.144757663742467,0.4144309439556624,2.27435490252568,-0.007578144802840867
68603000000,1978,68603000000,,panda_joint1,panda_joint2,panda_joint3,panda_joint4,panda_joint5,panda_joint6,panda_joint7,1.2156351396520106,-0.380799542977579,-1.1940245130425104,-2.426501486397596,2.6898351523652497,0.9111704507472425,0.4492267796447784,0.5103289090650724,0.40827016215071876,-0.5345351804185056,0.2490102370302002,0.32144698529095705,-0.1828110210679476,0.26366389346677027,0.06952383798174759,1.2489503295625286,-9.312220259364313,-19.128976433063606,0.4777768322134846,2.234390372917925,-0.002021630577139376
68637000000,1979,68637000000,,panda_joint1,panda_joint2,panda_joint3,panda_joint4,panda_joint5,panda_joint6,panda_joint7,1.2335770565751512,-0.36653537879375175,-1.2126152551833673,-2.418170040556886,2.7013365253075,0.9044874786918875,0.45845649120441134,0.5510701911197801,0.43079368138615687,-0.5762191722199187,0.24306824011184933,0.34945454173124246,-0.2031138738712623,0.2791460154983013,-0.2575229050343708,0.9284820138406321,-8.392141211759942,-19.263243089599673,0.5477919710310681,2.219666667318361,0.01572895955928335
68671000000,1980,68671000000,,panda_joint1,panda_joint2,panda_joint3,panda_joint4,panda_joint5,panda_joint6,panda_joint7,1.2527388814847793,-0.35179085371157015,-1.2327027485256643,-2.4102554296368144,2.7135103980952913,0.8971424148624401,0.46817386848328546,0.581043620222401,0.43712635762152097,-0.6209986737583377,0.22416115265697145,0.3608104916013619,-0.22464425249051695,0.29150665976600093,0.05175074176224546,0.9412955879654333,-8.923548838796854,-19.078877049869586,0.4827182910839665,2.2414207198557143,-0.004666527195996697
68705000000,1981,68705000000,,panda_joint1,panda_joint2,panda_joint3,panda_joint4,panda_joint5,panda_joint6,panda_joint7,1.2732672728232037,-0.33657821584882885,-1.2543591679125683,-2.4028041104411884,2.7264190714004126,0.8891740198804374,0.47839269163570197,0.6269799683580216,0.4571458937333235,-0.6656435396479001,0.2146568832416568,0.38885338516893353,-0.23930558634664165,0.3042751386109073,-0.2533575541425241,0.6907628712440839,-7.965186222592568,-19.177203570271814,0.5871000881960744,2.2245596544018773,0.01868362369597084
68740000000,1982,68739000000,,panda_joint1,panda_joint2,panda_joint3,panda_joint4,panda_joint5,panda_joint6,panda_joint7,1.2943257142393865,-0.32136055114432516,-1.2766870621462392,-2.3961979088443277,2.7394703248902363,0.881155994454236,0.4885651853082109,0.6164481327217607,0.4359130211276138,-0.6622201722736427,0.17585280221773442,0.36953410324921515,-0.23556385533427893,0.29248296851733313,0.2040426822265386,1.1637731092269865,-8.560144795214923,-19.120025303509493,0.5357605861132397,2.3076138498496133,-0.00693526069361346
68774000000,1983,68773000000,,panda_joint1,panda_joint2,panda_joint3,panda_joint4,panda_joint5,panda_joint6,panda_joint7,1.3153964282364967,-0.30690222681074086,-1.2988600640353614,-2.390665208876058,2.7521260486663657,0.8732911904650891,0.4984267583542463,0.6147202200798313,0.41057704223530184,-0.6329854461810089,0.1473735612578476,0.3718641868655961,-0.2331596369844114,0.28703349146690504,0.02094601660688599,0.8089219623855423,-8.055854690236814,-19.37651842037104,0.4322608863465105,2.3277250366438906,-0.021605777095905287
68808000000,1984,68807000000,,panda_joint1,panda_joint2,panda_joint3,panda_joint4,panda_joint5,panda_joint6,panda_joint7,1.3361657475930793,-0.2934482407428831,-1.3206099594527618,-2.3860638569483426,2.7641778677480655,0.8657385516698977,0.5077732768171712,0.603533621684061,0.38049097121465725,-0.632361073131608,0.12345853424054598,0.34031318814543227,-0.2082521404061889,0.2619014981921461,0.12217287456590886,0.916379180720167,-7.0271493462447125,-19.734328276222463,0.5951178856106164,2.3509958850454953,0.01248786917464824
68841000000,1985,68841000000,,panda_joint1,panda_joint2,panda_joint3,panda_joint4,panda_joint5,panda_joint6,panda_joint7,1.355799711309567,-0.28147053994054083,-1.3410461799900624,-2.382414499055691,2.775111851029859,0.85883527007765,0.5162404348553293,0.5585784066059224,0.32853714102807663,-0.5901764660920631,0.09573350176781598,0.29715311891938023,-0.2000758448780328,0.23445443726754941,0.7040239525695822,0.9074108645694583,-7.49855016050083,-19.58300085662376,0.4988666014318329,2.385033585102866,-0.010894948024237515
68875000000,1986,68875000000,,panda_joint1,panda_joint2,panda_joint3,panda_joint4,panda_joint5,panda_joint6,panda_joint7,1.3744104960290358,-0.27096690116300515,-1.3603280369829633,-2.3794314639602208,2.7850464227486995,0.8524412977654787,0.5239344739917051,0.5231775583075654,0.2866602754489398,-0.5301613425759882,0.07703690991516222,0.28383161772728804,-0.17929680232425138,0.21624970983478495,0.40362691407421003,0.438070004132644,-7.069188134726022,-19.823806522407956,0.40335385045120137,2.341292737737704,-0.010544950446885113
68922000000,1987,68914000000,,panda_joint1,panda_joint2,panda_joint3,panda_joint4,panda_joint5,panda_joint6,panda_joint7,1.3939359285481006,-0.2606804234848381,-1.380617644627618,-2.376711643038318,2.7950022744187883,0.8459854879383659,0.5315915011325947,0.4661598687937929,0.236576190069955,-0.4722552404724163,0.05875264922628215,0.24182178770642354,-0.15236317696042032,0.18290643833001893,0.4182356272692806,0.17647723943432492,-6.803380488916462,-19.918367009285607,0.39926689257660775,2.3480774306656578,-0.010557689910679353
68947000000,1988,68947000000,,panda_joint1,panda_joint2,panda_joint3,panda_joint4,panda_joint5,panda_joint6,panda_joint7,1.408629583385908,-0.25349425677820037,-1.395933768155924,-2.3749145672666776,2.802126507491062,0.84128789924344,0.5370521332697269,0.4142166248685948,0.1952572267333639,-0.4197053049736846,0.04618937010406288,0.20601601466228858,-0.13261119759702436,0.15539984572403368,0.39173203270287205,-0.13555174086509614,-6.622218499712167,-19.927057755188127,0.39159402613343663,2.3415736686877673,-0.010178734602979357
68981000000,1989,68981000000,,panda_joint1,panda_joint2,panda_joint3,panda_joint4,panda_joint5,panda_joint6,panda_joint7,1.4217838305785895,-0.2474785809600295,-1.4097080623106226,-2.373459607458619,2.8082164430472023,0.8372229026996703,0.5416953088775642,0.3667368299561703,0.16197722729368344,-0.3876591785661615,0.039693127727591954,0.16132588977050688,-0.10806650121291991,0.12183772180899677,0.3118193807275362,-0.44426071608883044,-5.762813066772004,-19.99661135206172,0.5410318181427668,2.352435631977132,0.013690647597275956
69018000000,1990,69018000000,,panda_joint1,panda_joint2,panda_joint3,panda_joint4,panda_joint5,panda_joint6,panda_joint7,1.4335624127474276,-0.24245545967728965,-1.4221138941788833,-2.3722708314927186,2.8134200096587474,0.8336958967873738,0.545655718043732,0.2753804434898581,0.11421453002627371,-0.3009432225479873,0.02715079721874166,0.11366322155430797,-0.0839445174134666,0.08958924142414501,0.7820112833855726,-0.47277371033107696,-6.725887842517713,-19.814701627868594,0.4914302976810394,2.3838747891069083,-0.005982900926055055
69052000000,1991,69052000000,,panda_joint1,panda_joint2,panda_joint3,panda_joint4,panda_joint5,panda_joint6,panda_joint7,1.4418571803266458,-0.23916464156041606,-1.4308749214755068,-2.3715339999619003,2.8168931550572385,0.8312457642179183,0.5483200221589506,0.24106018369620796,0.08052996920593025,-0.24124834280337998,0.0190274756805643,0.10190671853698866,-0.07873936787242702,0.08300101075184019,0.0310559520519906,-1.3914737991939283,-6.126461167329802,-19.99399830256033,0.2890688302285851,2.319341195129849,-0.011077170932203213
69086000000,1992,69086000000,,panda_joint1,panda_joint2,panda_joint3,panda_joint4,panda_joint5,panda_joint6,panda_joint7,1.4516518531719047,-0.23600664212593703,-1.4412969243946225,-2.370367276912984,2.8207457254012667,0.8281043425074426,0.5514052557072606,0.33448843086510627,0.10904537997141733,-0.36202242943183166,0.04163486294264685,0.12759280510921875,-0.09880585202346738,0.0972564789473381,-0.24785173970424437,-2.1722848812681828,-5.443703153495773,-19.522790732821207,0.4753569150685989,2.2406496557463744,0.012323941547493967
69121000000,1993,69121000000,,panda_joint1,panda_joint2,panda_joint3,panda_joint4,panda_joint5,panda_joint6,panda_joint7,1.4628891812452949,-0.23214922812704142,-1.4535234691709018,-2.3691907439216813,2.8251567393444663,0.8247838778641192,0.5546877919212374,0.32949812153819147,0.10941428256393904,-0.3452714131548309,0.028082551950405564,0.13138346488815672,-0.0996972379110954,0.0980271470393766,-0.41121635346469526,-2.1927476294598964,-6.3404302275477304,-19.505552872492643,0.3738450026789634,2.2143869906429767,-0.009906241595533832
69155000000,1994,69155000000,,panda_joint1,panda_joint2,panda_joint3,panda_joint4,panda_joint5,panda_joint6,panda_joint7,1.4755796299869504,-0.22809693620273208,-1.4671973667083726,-2.3680360991911966,2.829659923062996,0.8212281583808547,0.5580845494200499,0.4093219217858431,0.12911499061688714,-0.4415247348501138,0.034668136111245446,0.13607948260261857,-0.10574990087324806,0.09960070755482288,-0.5102946148976752,-2.535605051768407,-5.6842070918755025,-19.413719962613285,0.5616755246971536,2.2254502959417555,0.011355609366266407
69189000000,1995,69189000000,,panda_joint1,panda_joint2,panda_joint3,panda_joint4,panda_joint5,panda_joint6,panda_joint7,1.4884866381577178,-0.2240368231731864,-1.4809538339900623,-2.367211837664189,2.833865087461083,0.8180686451572132,0.5611408112474416,0.3440006510512236,0.10681749588330572,-0.37191559940927227,0.016023704942563957,0.09980164309741238,-0.07929265581076964,0.07589167842077664,0.21601141787635603,-2.0662853076559538,-6.852238211549657,-19.64385597109951,0.5586355381128038,2.3475897179998704,-0.008118011209033283
69223000000,1996,69223000000,,panda_joint1,panda_joint2,panda_joint3,panda_joint4,panda_joint5,panda_joint6,panda_joint7,1.499163565033908,-0.22088470718237385,-1.4919798878651456,-2.366852214933963,2.836854677879371,0.8156772883391898,0.5633654375715453,0.27654122585849594,0.07472521305225346,-0.2670991637669738,0.004999574113242866,0.07891207870992956,-0.06223323352716239,0.05824207854761281,-0.1061730079566723,-2.4044318848576913,-6.278565976811737,-19.886913745860053,0.4458920491265216,2.3289239882946644,-0.010138668118062933
69257000000,1997,69257000000,,panda_joint1,panda_joint2,panda_joint3,panda_joint4,panda_joint5,panda_joint6,panda_joint7,1.5078507229626847,-0.21870509125639703,-1.5006270537152382,-2.36661468737923,2.838871949055358,0.813814442556275,0.5649969948642966,0.2898089506699552,0.06351434050886284,-0.2899496695891771,0.017915496711682834,0.05902328269054111,-0.06825399896899965,0.05107237098177659,-0.24773010539187648,-2.985566033098079,-5.018550502382812,-19.932881445428556,0.46008776154676034,2.2466391230766214,0.012617910030193767
69292000000,1998,69292000000,,panda_joint1,panda_joint2,panda_joint3,panda_joint4,panda_joint5,panda_joint6,panda_joint7,1.5189209942471216,-0.21651197533389777,-1.5117281484288245,-2.3658164360165,2.841157972871587,0.8111292873924327,0.5669039138547323,0.33992863374572896,0.06338098464817063,-0.33171574444921337,0.021413347770434528,0.07428371447456014,-0.08105958553527276,0.057454987421200955,-0.13229781630567863,-3.2519060529690242,-5.740073049073673,-19.413017484138216,0.3566074043371348,2.238717581490886,-0.0077471503878200265
69329000000,1999,69329000000,,panda_joint1,panda_joint2,panda_joint3,panda_joint4,panda_joint5,panda_joint6,panda_joint7,1.5306171462247198,-0.21420572684610217,-1.523662219490781,-2.3651867410195972,2.8433947523820375,0.8086653320093262,0.56859126470198,0.28975053170512827,0.05807830354630756,-0.29894119605741076,0.011641559535886768,0.048564301483832076,-0.052176996294533526,0.03543611668258631,-0.007955185511673561,-3.229441040861929,-5.150760420521198,-19.80629138725085,0.5358494184155438,2.3155237016874706,0.010305292586852794
69362000000,2000,69362000000,,panda_joint1,panda_joint2,panda_joint3,panda_joint4,panda_joint5,panda_joint6,panda_joint7,1.538551301990859,-0.21279208035402686,-1.5317146863787094,-2.3649843669556905,2.8446341613484876,0.8071351078683495,0.5695479724220194,0.21607382023038493,0.03897473431142324,-0.22252593954834982,0.005892033481753101,0.029542159563587453,-0.03917043383592575,0.021836828613599223,0.09817225462360184,-3.4050994350253783,-5.1279465616678,-19.874521823690223,0.5284226381693449,2.3165140707980547,0.01195230590283261
69396000000,2001,69396000000,,panda_joint1,panda_joint2,panda_joint3,panda_joint4,panda_joint5,panda_joint6,panda_joint7,1.5433212350276815,-0.2120285563551585,-1.5365028800880136,-2.365031512071468,2.8452768781337223,0.8063260888112485,0.5700514873424174,0.09099123923954897,0.011046105545855712,-0.09897217842882856,-0.0031857356496239123,0.0033166355916285756,-0.01695574795358362,0.00814013171827257,0.6368521163758071,-3.3139250910123734,-6.076717619474104,-19.967924220352288,0.4558057595456364,2.391472728933591,-0.0069714663081699045
69430000000,2002,69430000000,,panda_joint1,panda_joint2,panda_joint3,panda_joint4,panda_joint5,panda_joint6,panda_joint7,1.5484395184319535,-0.21153240565604214,-1.5416869000261624,-2.3646800543778586,2.8457525919622633,0.8050641806169896,0.5705740906951773,0.2035841518164631,0.016296680854034448,-0.1975101867998937,0.01837781506026178,0.027678287746183583,-0.0516579253316493,0.02282031024027984,-0.1501434012151293,-3.9956477583759247,-5.559781211052808,-19.35909298190904,0.3320815739589127,2.210375201241019,-0.003987964738692906
69464000000,2003,69464000000,,panda_joint1,panda_joint2,panda_joint3,panda_joint4,panda_joint5,panda_joint6,panda_joint7,1.5567646456714543,-0.2107115107937787,-1.5503899585904861,-2.363948296596045,2.8466013179064458,0.8032120625036026,0.5712706217306955,0.2902546180938037,0.03246047191158129,-0.3081944794710285,0.023833421793915316,0.026366260039665086,-0.058907484617181774,0.019152943330898883,-0.3110701241658364,-4.191939563067991,-4.95528398113499,-19.275100268007353,0.5022562706531292,2.2088280037124153,0.012789258131672502
69498000000,2004,69498000000,,panda_joint1,panda_joint2,panda_joint3,panda_joint4,panda_joint5,panda_joint6,panda_joint7,1.5671964152210531,-0.2097785097355338,-1.5613593949685054,-2.36332708348454,2.847365296015825,0.8010435999188523,0.571865240045498,0.3006451820179366,0.023105670634159838,-0.32489662855650303,0.012444641899428288,0.012332588595397978,-0.05958239242585205,0.012233138153937322,0.36716966152566105,-4.104884288724555,-6.297896118550422,-19.227681573020245,0.4935610613900432,2.2636919911373923,-0.0038560001161463057
69532000000,2005,69532000000,,panda_joint1,panda_joint2,panda_joint3,panda_joint4,panda_joint5,panda_joint6,panda_joint7,1.5761220809997765,-0.20917660799032234,-1.5706563612045166,-2.363211575336507,2.8477671229823684,0.7995440624529344,0.5721536177234441,0.22242930521475368,0.008446979297657965,-0.21724402542871624,-0.003709392511248341,0.010924631489598012,-0.036691070334563654,0.007027246111585492,-0.12996396862476212,-4.565630202064276,-5.907639613281956,-19.72746969793062,0.4187395909186227,2.3208609359914356,-0.008533135284239487
69566000000,2006,69566000000,,panda_joint1,panda_joint2,panda_joint3,panda_joint4,panda_joint5,panda_joint6,panda_joint7,1.5822386696725612,-0.2089336229905383,-1.5769433031463045,-2.3633175565589966,2.8478523343334814,0.7986536632718462,0.5722418543490306,0.12867061523316717,0.0077988882659620245,-0.13467204241044725,-0.005262378409644226,0.0014773804624165473,-0.012088383924167737,3.953380834597828e-05,0.0050913626861562936,-4.843131604959374,-5.256992746431191,-20.01557872182923,0.5398860946617363,2.3703219387421948,0.009586290268233266
69600000000,2007,69600000000,,panda_joint1,panda_joint2,panda_joint3,panda_joint4,panda_joint5,panda_joint6,panda_joint7,1.5861955348402885,-0.2088588185662834,-1.5809605678934808,-2.3633635577142575,2.847725797157162,0.7979019864125032,0.5722402853100945,0.15978360404009315,0.002930082582390952,-0.17284786941183833,0.013323083275539879,-0.012722702966927386,-0.04107831628946563,-0.0017159387124550702,0.23058841679612985,-4.6428024692278305,-5.974293979143906,-19.456751260624454,0.4423417224240461,2.2378827125897245,-0.0019611184426008813
69637000000,2008,69637000000,,panda_joint1,panda_joint2,panda_joint3,panda_joint4,panda_joint5,panda_joint6,panda_joint7,1.5944256721727719,-0.2087113636849791,-1.5893658943973321,-2.362704097520817,2.8474383373400762,0.7961660869861156,0.5721389968644637,0.25906758793448004,-0.0010410080817198752,-0.25228979270005414,0.01565352051981654,-0.006747766138822871,-0.053884379236470915,-0.003914340325934183,-0.27700313302133645,-5.029400927857355,-5.638006136894596,-19.16034758429128,0.38221497996093756,2.2143917531782984,-0.006784111604080384
69671000000,2009,69671000000,,panda_joint1,panda_joint2,panda_joint3,panda_joint4,panda_joint5,panda_joint6,panda_joint7,1.6047169436093212,-0.2087424822467021,-1.5998928457100714,-2.3620843561773173,2.8468019862830527,0.7942084151307398,0.571762751106828,0.34949798277166866,-0.00016679985536734263,-0.36067163676494496,0.018535939180573377,-0.025915918553638034,-0.062007436705135185,-0.017856507626635956,-0.33835549612111304,-5.253616704185962,-4.884330867233972,-19.1064250917655,0.5113960903449025,2.222198798764937,0.01024368510727015
69706000000,2010,69706000000,,panda_joint1,panda_joint2,panda_joint3,panda_joint4,panda_joint5,panda_joint6,panda_joint7,1.6178212444920126,-0.20918131815983898,-1.6132638144283433,-2.36158361334347,2.845443603568013,0.7917804615584743,0.5708893500249097,0.401489008621448,-0.023624659051307305,-0.3963096633409105,0.010585010535542158,-0.045750324352511654,-0.07315435136493283,-0.03134818419302697,-0.20938723184511854,-5.457967938014908,-5.6376731327300185,-19.07143281442675,0.395604495069914,2.2095273343376984,-0.006626430100170508
69742000000,2011,69741000000,,panda_joint1,panda_joint2,panda_joint3,panda_joint4,panda_joint5,panda_joint6,panda_joint7,1.6333057830899023,-0.21026833077452345,-1.6290249355954085,-2.3611550099150653,2.843077975002082,0.7890524145938222,0.5693107835388709,0.46648711054250175,-0.0444995338457447,-0.48296352269072534,0.010803132639285395,-0.09060607329075909,-0.08448653975415782,-0.05790086331646,0.38387310386356155,-5.567789927723096,-5.970405373201792,-19.002672959903933,0.47282823371129235,2.2406679233623423,-0.0036190942036100383
69776000000,2012,69775000000,,panda_joint1,panda_joint2,panda_joint3,panda_joint4,panda_joint5,panda_joint6,panda_joint7,1.650373599601095,-0.21217501235286207,-1.6463439324156859,-2.3608016382591854,2.8395191622771243,0.7860382668889052,0.5668977396053059,0.5216755836072318,-0.07294666339823841,-0.5174890494840644,0.006886514906014857,-0.12152035220587745,-0.09813153531683666,-0.08390693216893182,-0.05457568188612742,-6.156836628739898,-5.579774609528404,-18.897044421533053,0.39265029260384265,2.214666760818637,-0.007622334497167148
69811000000,2013,69809000000,,panda_joint1,panda_joint2,panda_joint3,panda_joint4,panda_joint5,panda_joint6,panda_joint7,1.6692315146561398,-0.21511717059485846,-1.6655072030327407,-2.3605212204372723,2.834434106456829,0.7826027780277567,0.5634236039912146,0.5874356865330339,-0.09715729065099389,-0.6013970040510576,0.008056717415519665,-0.17222362613374734,-0.10948327097891024,-0.11978604007793607,-0.11389852246414064,-6.652598837940237,-4.77709066384591,-18.86461418410516,0.4983999180770951,2.221000059104961,0.008144694668531129
69847000000,2014,69843000000,,panda_joint1,panda_joint2,panda_joint3,panda_joint4,panda_joint5,panda_joint6,panda_joint7,1.6893385623665882,-0.21923297099099237,-1.6860195702847722,-2.360399341102304,2.827683156912471,0.7786866522315385,0.5588055668753018,0.5850599579252557,-0.1404660547116585,-0.6063861988133414,-0.0018966860180649747,-0.2226687111281921,-0.1187339073939725,-0.14905981172077573,0.7231519795092878,-7.117821378009145,-6.057419548148899,-18.709078281633495,0.44190963056568283,2.2558115135025867,-0.002402772106938396
69876000000,2015,69876000000,,panda_joint1,panda_joint2,panda_joint3,panda_joint4,panda_joint5,panda_joint6,panda_joint7,1.7082125663231214,-0.22415493776379591,-1.7054063818371166,-2.360714858818379,2.820150399724186,0.7747628273986908,0.5536518408324369,0.552765421012615,-0.16022642948499907,-0.5803415641890514,-0.014928748349424814,-0.24452848343554026,-0.12273810602337168,-0.16456501491940867,0.7312083989459712,-7.944075043991655,-6.176891195587667,-18.868750067659814,0.43341835969284365,2.2698866580143218,-0.0013569757252733941
69910000000,2016,69910000000,,panda_joint1,panda_joint2,panda_joint3,panda_joint4,panda_joint5,panda_joint6,panda_joint7,1.7264847650892943,-0.22971533071189398,-1.7244692451135535,-2.3614158795381117,2.811753664118603,0.7704898288574071,0.5478778080209761,0.5076524497732594,-0.1706807682830833,-0.5233847562213597,-0.028202525835231113,-0.2485466096102986,-0.127767657522496,-0.17136900119334325,0.21860009787565288,-8.951783032499215,-6.08757558527923,-18.972335997214657,0.34369973941343884,2.250493562645121,-0.005687142987100439
69945000000,2017,69945000000,,panda_joint1,panda_joint2,panda_joint3,panda_joint4,panda_joint5,panda_joint6,panda_joint7,1.7437619516703844,-0.2356549854963088,-1.7428650054078343,-2.3625288330456256,2.802798423264056,0.7658673828592804,0.5416965272547749,0.4628319941332789,-0.1720613015487505,-0.5061359359163958,-0.03763615186972036,-0.26188634708783226,-0.13837142147772377,-0.17901941664461485,0.6253568014374485,-9.521927997170245,-6.622874509121005,-18.604634279310027,0.44813157555368494,2.349226664638018,-0.005320228727539819
69978000000,2018,69978000000,,panda_joint1,panda_joint2,panda_joint3,panda_joint4,panda_joint5,panda_joint6,panda_joint7,1.758228575604873,-0.24114177869747877,-1.758603361243896,-2.364002122690322,2.7944981565217297,0.7613422336794464,0.5359542471786458,0.41237799745509024,-0.1658062467942159,-0.46348249980458095,-0.049019121034981794,-0.2544968469181958,-0.14000811661346868,-0.17266817084072827,0.5405139034826395,-10.181659915028813,-6.9602563145518195,-18.750065335157515,0.4471548701530021,2.297438929421618,-0.002521565583096163
70012000000,2019,70012000000,,panda_joint1,panda_joint2,panda_joint3,panda_joint4,panda_joint5,panda_joint6,panda_joint7,1.7714144392054294,-0.24645552261121395,-1.7732440493186505,-2.365880020982691,2.786273715944068,0.7565786199409583,0.5302421388215937,0.35031631163851096,-0.15239550768168952,-0.38250626206098576,-0.06401287269760739,-0.23105037997525432,-0.14080569681169744,-0.16108217641618428,-0.024175284997989897,-11.032979116911658,-6.957975861289224,-18.884210714684656,0.36264390042775063,2.2950991714827045,-0.0069773900528224365
70046000000,2020,70046000000,,panda_joint1,panda_joint2,panda_joint3,panda_joint4,panda_joint5,panda_joint6,panda_joint7,1.7827827553015254,-0.25128297686466716,-1.7861221377636856,-2.368082164607361,2.778648037758396,0.7518817347393405,0.524950815969591,0.3201688013067794,-0.12772473667554082,-0.36730994317040067,-0.06584865822096718,-0.21105138675290486,-0.13362929866961107,-0.14957264721588404,-0.4370103131687275,-11.561406834777193,-6.185139940475745,-18.943426116790114,0.4943026241822623,2.3584256222397557,0.009307736031318561
70080000000,2021,70080000000,,panda_joint1,panda_joint2,panda_joint3,panda_joint4,panda_joint5,panda_joint6,panda_joint7,1.7921880598601412,-0.25545486696532294,-1.796998284473462,-2.37051405260775,2.7718874383132324,0.7473991467324108,0.5202606816367545,0.24559962426316403,-0.11517516163043047,-0.29613134417171366,-0.07229491891293652,-0.18998830866744315,-0.1287501430937314,-0.12868728060629758,0.3429734094552884,-11.839829330220336,-7.591154300556564,-18.732835465485508,0.4684254900229067,2.3701371024585525,-0.008715515286870257
70114000000,2022,70114000000,,panda_joint1,panda_joint2,panda_joint3,panda_joint4,panda_joint5,panda_joint6,panda_joint7,1.799460744935093,-0.25881988566005276,-1.805560706364803,-2.3729629716912592,2.76637307715162,0.7435344299265445,0.5164369357989838,0.17154523456133755,-0.0873297506336437,-0.1963075625315315,-0.07261077338809407,-0.14072694883715464,-0.10875649552317765,-0.09891076539415682,-0.14402984455998616,-12.51409442359721,-7.435794167211765,-18.99096850279088,0.39119002045540485,2.385723263487546,-0.008982907761259972
70150000000,2023,70149000000,,panda_joint1,panda_joint2,panda_joint3,panda_joint4,panda_joint5,panda_joint6,panda_joint7,1.8046656355972601,-0.2613290502526322,-1.8118374155450017,-2.375162343318551,2.7622592171061306,0.7405482932969782,0.5136054288238832,0.12065360445071649,-0.06244271773282462,-0.1536035512451863,-0.05216254857158478,-0.09775627709264137,-0.061604150777628625,-0.06823656126180865,0.19638832532584982,-12.562882689907838,-7.79302831712719,-19.42199441987691,0.5265839552868075,2.4693053775844165,0.006292709293892406
70182000000,2024,70182000000,,panda_joint1,panda_joint2,panda_joint3,panda_joint4,panda_joint5,panda_joint6,panda_joint7,1.8097721514737088,-0.2630109903205504,-1.8178969440931958,-2.376677817538268,2.7580726830070503,0.7369657636988389,0.5105622289875047,0.18522419024021317,-0.05798532783416982,-0.22232431037174788,-0.04360591524327749,-0.16103756694150811,-0.13549719304309535,-0.11040542030866629,0.0028977535953808066,-11.35379700891161,-7.367724040989072,-17.78690549426401,0.5251083219135059,2.23939733440245,-0.007300725946353922
70216000000,2025,70216000000,,panda_joint1,panda_joint2,panda_joint3,panda_joint4,panda_joint5,panda_joint6,panda_joint7,1.8169756262601293,-0.2652521143195976,-1.8261209415693163,-2.37876553998628,2.7518666964091807,0.7313392741212184,0.5062634246170017,0.20793050607620545,-0.08024310327151571,-0.22736905467108143,-0.08461414209046045,-0.19119591113101908,-0.17427731397733157,-0.12843883507993048,0.005981095887657611,-11.667818793667148,-7.0041971320513,-17.142349294211737,0.33255607898585426,2.151428954170097,-0.005148198624001953
70250000000,2026,70250000000,,panda_joint1,panda_joint2,panda_joint3,panda_joint4,panda_joint5,panda_joint6,panda_joint7,1.8235141411991087,-0.26803908828379974,-1.8336220161559105,-2.3822998526387904,2.7459911902967775,0.7260073477502882,0.5023426998271958,0.17577470729152042,-0.07290525471789092,-0.2067113735197809,-0.11310592867751536,-0.14823948587882038,-0.13981734295624035,-0.10244058741704795,-0.19223456110137763,-12.715754651045787,-6.0256264336239305,-18.264976194387167,0.41606772976332124,2.3097235764341417,0.008376132627933892
70284000000,2027,70284000000,,panda_joint1,panda_joint2,panda_joint3,panda_joint4,panda_joint5,panda_joint6,panda_joint7,1.827975534046118,-0.2704512136735211,-1.83905846964546,-2.386142245407439,2.7418255517802788,0.7222939996676434,0.4995568245033457,0.10066147199310413,-0.06462242174821824,-0.13649126802089284,-0.10032060813383276,-0.10102525346424235,-0.08072696088462648,-0.06506509665884867,0.709768545607586,-13.187070375111663,-7.686665043293474,-19.321250722838712,0.39129975966570013,2.405658775741778,-0.0013203242131816426
70319000000,2028,70318000000,,panda_joint1,panda_joint2,panda_joint3,panda_joint4,panda_joint5,panda_joint6,panda_joint7,1.8305966764302681,-0.27199813858227806,-1.842598440750118,-2.3889971604071354,2.7392509623047108,0.7198869874266425,0.4976988220723637,0.07697549778873468,-0.03329860217468025,-0.10052540529402514,-0.06828023888015425,-0.08895947705840496,-0.09951313114414026,-0.06740689400345797,-0.05605051080218727,-12.977534461276022,-7.294621801296638,-18.518464916653233,0.41063195455229884,2.383714065820751,-0.005119066493604252
70352000000,2029,70352000000,,panda_joint1,panda_joint2,panda_joint3,panda_joint4,panda_joint5,panda_joint6,panda_joint7,1.8339439909245066,-0.27310642785518624,-1.8471474883946026,-2.3912907744004395,2.7356690675693542,0.7158771381240623,0.4951719087798079,0.09173478445302188,-0.028739499317304403,-0.12479575734762113,-0.07101532158662258,-0.08483875903235308,-0.09785837289287991,-0.059227647047717484,-0.46472227754218265,-13.06719601928009,-6.372573508024209,-18.60754051438118,0.42750905278053913,2.2491498653079156,0.014633397332108656
70388000000,2030,70387000000,,panda_joint1,panda_joint2,panda_joint3,panda_joint4,panda_joint5,panda_joint6,panda_joint7,1.8359970613092536,-0.2741197574391041,-1.8501088529832135,-2.3934638192830358,2.7333882038923676,0.7133968530050669,0.49355022907476886,0.05067754340443453,-0.022359749257639387,-0.0695209217073411,-0.05488723537981062,-0.07388834547351858,-0.09286866448733745,-0.05010987415099941,0.0067870001001664355,-13.028629743562837,-7.54002255461864,-18.03327739446005,0.32171373019295246,2.237607534907649,-0.017346410608370028
70420000000,2031,70420000000,,panda_joint1,panda_joint2,panda_joint3,panda_joint4,panda_joint5,panda_joint6,panda_joint7,1.8383589036250427,-0.2748043544258927,-1.8534187004477847,-2.395348297106973,2.7306532057317945,0.7100026468445559,0.4915574729382435,0.08325968712948824,-0.021800447076300727,-0.10838440840926578,-0.07100259878144055,-0.10936830038782912,-0.1436026776162726,-0.08039216235253112,-0.14775618540887633,-12.496648913318698,-7.09998115926204,-16.81356806370184,0.41837276708648363,2.2509511550607733,-0.006697893767776956
70454000000,2032,70454000000,,panda_joint1,panda_joint2,panda_joint3,panda_joint4,panda_joint5,panda_joint6,panda_joint7,1.8420409483468667,-0.27573992141307,-1.8584477292913721,-2.3986033093337342,2.726188288065938,0.704248363863945,0.48846663466111373,0.10969181387520323,-0.030363697631741328,-0.15093638818867366,-0.11940491949082846,-0.11954377617850923,-0.1535956222501746,-0.08025771416971196,-0.37878894131887075,-12.725314538692185,-6.236051703936741,-17.556517231103655,0.3802098362094027,2.104577568745687,0.00925941721784206
70493000000,2033,70493000000,,panda_joint1,panda_joint2,panda_joint3,panda_joint4,panda_joint5,panda_joint6,panda_joint7,1.8445485297675646,-0.2772039843753653,-1.8621627648924566,-2.4032097496921,2.7230089445119177,0.7004331991883408,0.4863851167273374,0.0609799436496108,-0.028006666075941034,-0.08724932932534431,-0.09656064002666917,-0.05032451428668873,-0.056295414166894264,-0.04527278344328661,-0.48888395164542553,-13.712564706464052,-6.255103847796007,-19.24655524887683,0.5258400763024333,2.5216762344412746,0.016384569617053545
70529000000,2034,70528000000,,panda_joint1,panda_joint2,panda_joint3,panda_joint4,panda_joint5,panda_joint6,panda_joint7,1.8460502679810702,-0.2781730204481434,-1.864587073497436,-2.4061892826784073,2.7210291170415264,0.6980622607008176,0.485014523479105,-0.0032214888323524567,-0.025299626083510454,-0.0029439201708798806,-0.07087755583849223,-0.014839779444183836,-0.018577352194287244,-0.011696346673233219,0.1297722936074476,-14.203353068381205,-7.777864120310847,-19.62077302190925,0.32441993334173624,2.43768577265269,0.007846579500455718
70561000000,2035,70561000000,,panda_joint1,panda_joint2,panda_joint3,panda_joint4,panda_joint5,panda_joint6,panda_joint7,1.847541095999567,-0.2785676924609195,-1.8669967356398551,-2.408139553263447,2.718959133520933,0.6950822110662287,0.48335762295775453,0.05642558699817465,-0.008088373108914151,-0.0852648060271472,-0.07755664370274813,-0.09917687842591369,-0.15486920920530373,-0.07476619770399648,-0.06376981168355694,-12.925741245218653,-7.101394470832331,-16.353204054742413,0.42159818253738673,2.294592015652142,-0.009588785996259354
70596000000,2036,70596000000,,panda_joint1,panda_joint2,panda_joint3,panda_joint4,panda_joint5,panda_joint6,panda_joint7,1.849833777407575,-0.278928229405075,-1.870759477201302,-2.411783314312509,2.7153060780770097,0.6894817646774563,0.48087897462395546,0.04721199154940357,-0.020744116163777637,-0.09077463678235292,-0.1140186312426302,-0.08287415639241506,-0.1118083813939634,-0.049794456762481565,0.35967487448391333,-13.015431982083967,-7.617122055643785,-18.079339074262894,0.366008498098196,2.155283959869407,-0.003919464943789059
70629000000,2037,70629000000,,panda_joint1,panda_joint2,panda_joint3,panda_joint4,panda_joint5,panda_joint6,panda_joint7,1.8509051704984607,-0.2795522361623899,-1.8727195470984377,-2.4149203981862604,2.713628891094997,0.6871771241746227,0.4796947597999548,0.04515574805948856,-0.019756836212943572,-0.08240538410643783,-0.08303444247003555,-0.07053858026976582,-0.09585198980701888,-0.05230815830158322,0.4344828671297348,-13.306455114089957,-7.47293167948634,-17.4618631015622,0.5085049274667682,2.4491328495726603,-0.007444823675687083
